BPID,lat,lon,NbDocks,Installed,commonName
1,51.529163,-0.10997000000000001,19,2010-07-12 15:08:00,"River Street , Clerkenwell"
2,51.499606,-0.197574,37,2010-07-08 10:43:00,"Phillimore Gardens, Kensington"
3,51.521283,-0.084605,32,2010-07-04 10:46:00,"Christopher Street, Liverpool Street"
4,51.530059,-0.120973,23,2010-07-04 10:58:00,"St. Chad's Street, King's Cross"
5,51.49313,-0.156876,27,2010-07-04 11:04:00,"Sedding Street, Sloane Square"
6,51.518117,-0.144228,18,2010-07-04 11:08:00,"Broadcasting House, Marylebone"
7,51.5343,-0.168074,16,2010-07-04 11:10:00,"Charlbert Street, St. John's Wood"
8,51.529857,-0.18348599999999998,39,2018-10-31 11:16:00,"Maida Vale, Maida Vale"
9,51.507385,-0.09644000000000001,19,2010-07-04 11:19:00,"New Globe Walk, Bankside"
10,51.505974,-0.09275399999999999,18,2010-07-04 11:21:00,"Park Street, Bankside"
11,51.523951,-0.122502,24,2010-07-05 14:34:00,"Brunswick Square, Bloomsbury"
12,51.52168,-0.130431,49,2010-07-05 14:37:00,"Malet Street, Bloomsbury"
13,51.519914,-0.136039,21,2010-07-05 14:40:00,"Scala Street, Fitzrovia"
14,51.529943,-0.12361599999999999,48,2010-07-05 14:44:00,"Belgrove Street , King's Cross"
15,51.517727,-0.127854,26,2010-07-05 14:47:00,"Great Russell Street, Bloomsbury"
16,51.526357,-0.125979,22,2010-07-05 14:50:00,"Cartwright Gardens , Bloomsbury"
17,51.521661,-0.10900599999999999,26,2010-07-06 13:42:00,"Hatton Wall, Holborn"
18,51.51477,-0.122219,27,2010-07-06 14:25:00,"Drury Lane, Covent Garden"
19,51.52505,-0.131161,30,2010-07-06 14:32:00,"Taviton Street, Bloomsbury"
21,51.530078,-0.138846,16,2010-07-06 14:49:00,"Hampstead Road (Cartmel), Euston"
22,51.522264,-0.114079,19,2010-07-06 15:08:00,"Northington Street , Holborn"
23,51.519435,-0.11912299999999999,16,2010-07-06 15:15:00,"Red Lion Square, Holborn"
24,51.51908,-0.124678,35,2010-07-06 15:29:00,"British Museum, Bloomsbury"
25,51.528833,-0.13225,31,2010-07-06 16:20:00,"Doric Way , Somers Town"
26,51.52728,-0.118295,21,2010-07-06 16:36:00,"Ampton Street , Clerkenwell"
27,51.513821,-0.107927,33,2010-07-07 10:56:00,"Bouverie Street, Temple"
28,51.523518,-0.143613,19,2010-07-07 11:01:00,"Bolsover Street, Fitzrovia"
29,51.513735,-0.193487,22,2010-07-07 11:13:00,"Hereford Road, Bayswater"
30,51.529154,-0.09342099999999999,24,2010-07-07 11:17:00,"Windsor Terrace, Hoxton"
31,51.529537,-0.083353,36,2010-07-07 11:20:00,"Fanshaw Street, Hoxton"
32,51.524696,-0.084439,43,2010-07-07 12:45:00,"Leonard Circus , Shoreditch"
33,51.5156,-0.070056,18,2010-07-07 12:49:00,"Central House, Aldgate"
34,51.534123,-0.129386,16,2010-07-07 12:51:00,"Pancras Road, King's Cross"
36,51.501737,-0.18498,28,2010-07-07 16:25:00,"De Vere Gardens, Kensington"
37,51.491593,-0.19236899999999998,17,2010-07-07 16:27:00,"Penywern Road, Earl's Court"
38,51.497387,-0.197245,17,2010-07-08 10:28:00,"Abingdon Villas, Kensington"
39,51.526377,-0.07813,41,2010-07-08 15:09:00,"Shoreditch High Street, Shoreditch"
40,51.52127,-0.07557799999999999,16,2010-07-08 15:13:00,"Commercial Street, Shoreditch"
41,51.520955,-0.083493,24,2010-07-08 15:18:00,"Pindar Street, Liverpool Street"
42,51.530991,-0.093903,28,2010-07-08 15:25:00,"Wenlock Road , Hoxton"
43,51.52026,-0.157183,18,2010-07-09 15:02:00,"Crawford Street, Marylebone"
44,51.510736,-0.144165,21,2010-07-09 15:05:00,"Bruton Street, Mayfair"
45,51.522511,-0.162298,26,2010-07-09 16:02:00,"Boston Place, Marylebone"
46,51.507131,-0.06691000000000001,16,2010-07-09 16:10:00,"Nesham Street, Wapping"
47,51.523344,-0.18384599999999998,19,2010-07-10 08:06:00,"Warwick Avenue Station, Maida Vale"
48,51.512484,-0.09914099999999999,25,2010-07-10 08:11:00,"Godliman Street, St. Paul's"
49,51.507069,-0.145904,16,2010-07-10 08:19:00,"Curzon Street, Mayfair"
50,51.528673,-0.087459,27,2010-07-10 08:24:00,"East Road, Hoxton"
51,51.526717,-0.104298,29,2010-07-10 08:29:00,"Finsbury Library , Finsbury"
52,51.522954,-0.09493399999999999,18,2010-07-10 08:34:00,"Roscoe Street, St. Luke's"
53,51.509992,-0.14349499999999998,18,2010-07-10 09:03:00,"Grafton Street, Mayfair"
54,51.521747,-0.09447499999999999,27,2010-07-10 12:59:00,"Golden Lane, Barbican"
55,51.517075,-0.086685,33,2010-07-10 13:03:00,"Finsbury Circus, Liverpool Street"
56,51.520583,-0.154701,16,2010-07-10 13:07:00,"Paddington Street, Marylebone"
57,51.523346,-0.12020199999999999,32,2010-07-10 13:11:00,"Guilford Street , Bloomsbury"
58,51.524526,-0.079248,20,2010-07-10 13:15:00,"New Inn Yard, Shoreditch"
60,51.526448,-0.17219,18,2010-07-10 13:39:00,"Lisson Grove, St. John's Wood"
61,51.497382,-0.089446,33,2010-07-10 14:57:00,"Great Dover Street, The Borough"
62,51.490757,-0.106323,24,2010-07-10 14:59:00,"Cotton Garden Estate, Kennington"
63,51.53089,-0.089782,27,2010-07-10 15:02:00,"Murray Grove , Hoxton"
64,51.509462,-0.124749,26,2010-07-10 15:05:00,"William IV Street, Strand"
65,51.525227,-0.135188,17,2010-07-11 09:31:00,"Gower Place , Euston"
66,51.51795,-0.10865699999999999,40,2010-07-11 10:48:00,"Holborn Circus, Holborn"
67,51.518825,-0.108028,28,2010-07-11 11:24:00,"Hatton Garden, Holborn"
68,51.520596,-0.116688,26,2010-07-11 14:04:00,"Theobald's Road , Holborn"
69,51.526236,-0.134407,24,2010-07-11 15:19:00,"Euston Road, Euston"
70,51.53136,-0.11706899999999999,24,2010-07-11 15:49:00,"Calshot Street , King's Cross"
71,51.515418,-0.09885000000000001,34,2010-07-12 08:55:00,"Newgate Street , St. Paul's"
72,51.52352,-0.10834,16,2010-07-12 12:01:00,"Farringdon Lane, Clerkenwell"
73,51.525726,-0.088486,37,2010-07-12 13:24:00,"Old Street Station, St. Luke's"
74,51.485917,-0.124469,17,2010-07-12 13:26:00,"Vauxhall Cross, Vauxhall"
75,51.532199,-0.10548,19,2010-07-12 14:33:00,"Torrens Street, Angel"
76,51.525595,-0.144083,21,2010-07-12 14:56:00,"Longford Street, The Regent's Park"
77,51.523418,-0.124121,26,2010-07-12 15:01:00,"Russell Square Station, Bloomsbury"
78,51.524868,-0.099489,17,2010-07-12 15:28:00,"Sadlers Sports Centre, Finsbury"
79,51.511726,-0.113855,18,2017-10-26 11:46:00,"Arundel Street, Temple"
80,51.500693,-0.102091,45,2010-07-12 16:34:00,"Webber Street , Southwark"
81,51.520253,-0.14132699999999998,19,2010-07-13 09:23:00,"Great Titchfield Street, Fitzrovia"
82,51.514274,-0.111257,15,2010-07-13 10:08:00,"Chancery Lane, Holborn"
83,51.509639,-0.13151000000000002,21,2010-07-13 10:10:00,"Panton Street, West End"
84,51.515937,-0.11177799999999999,25,2010-07-13 11:24:00,"Breams Buildings, Holborn"
85,51.500647,-0.0786,41,2010-07-13 13:01:00,"Tanner Street, Bermondsey"
86,51.489479,-0.115156,24,2010-07-13 13:19:00,"Sancroft Street, Vauxhall"
87,51.516468,-0.07968399999999999,16,2010-07-13 13:28:00,"Devonshire Square, Liverpool Street"
88,51.518587,-0.132053,25,2010-07-13 13:38:00,"Bayley Street , Bloomsbury"
89,51.52625,-0.123509,19,2010-07-13 13:56:00,"Tavistock Place, Bloomsbury"
90,51.533019,-0.139174,27,2010-07-13 14:07:00,"Harrington Square 1, Camden Town"
91,51.493686,-0.111014,20,2010-07-13 15:59:00,"Walnut Tree Walk, Vauxhall"
92,51.498898,-0.10044,41,2010-07-13 16:04:00,"Borough Road, Elephant & Castle"
93,51.534408,-0.109025,37,2010-07-13 16:16:00,"Cloudesley Road, Angel"
94,51.495061,-0.085814,28,2010-07-13 16:27:00,"Bricklayers Arms, Borough"
95,51.520841,-0.09734000000000001,15,2010-07-14 08:36:00,"Aldersgate Street, Barbican"
96,51.53095,-0.07850499999999999,26,2010-07-14 08:43:00,"Falkirk Street, Hoxton"
97,51.497924,-0.183834,18,2010-07-14 08:53:00,"Gloucester Road (North), Kensington"
98,51.525542,-0.138231,54,2010-07-14 09:18:00,"Hampstead Road, Euston"
99,51.514577,-0.158264,16,2010-07-14 09:28:00,"Old Quebec Street, Marylebone"
100,51.490435,-0.122806,24,2010-07-14 09:31:00,"Albert Embankment, Vauxhall"
101,51.511553,-0.09294000000000001,22,2010-07-14 10:18:00,"Queen Street 1, Bank"
102,51.513406,-0.076793,17,2010-07-14 10:21:00,"Jewry Street, Aldgate"
103,51.504723,-0.192538,18,2010-07-14 10:32:00,"Vicarage Gate, Kensington"
104,51.511594,-0.077121,34,2010-07-14 10:36:00,"Crosswall, Tower"
105,51.515529,-0.19024000000000002,26,2010-07-14 11:02:00,"Westbourne Grove, Bayswater"
106,51.514105,-0.147301,21,2010-07-14 11:28:00,"Woodstock Street, Mayfair"
107,51.526008,-0.096317,20,2010-07-14 11:38:00,"Finsbury Leisure Centre, St. Luke's"
108,51.498125,-0.132102,29,2010-07-14 11:42:00,"Abbey Orchard Street, Westminster"
109,51.515631,-0.132328,57,2010-07-14 11:52:00,"Soho Square , Soho"
110,51.533043,-0.172528,17,2010-07-14 12:02:00,"Wellington Road, St. John's Wood"
111,51.510017,-0.157275,28,2010-07-14 12:06:00,"Park Lane , Hyde Park"
112,51.515809,-0.10527,18,2010-07-14 13:51:00,"Stonecutter Street, Holborn"
113,51.496462,-0.18328899999999998,19,2010-07-14 14:10:00,"Gloucester Road (Central), South Kensington"
114,51.524517,-0.158963,22,2010-07-14 15:05:00,"Park Road (Baker Street), The Regent's Park"
115,51.514233,-0.07353699999999999,34,2010-07-14 15:18:00,"Braham Street, Aldgate"
116,51.514499,-0.141423,21,2010-07-14 15:46:00,"Little Argyll Street, West End"
117,51.49288,-0.114934,25,2010-07-14 16:17:00,"Lollard Street, Vauxhall"
118,51.495827,-0.135478,13,2010-07-14 16:22:00,"Rochester Row, Westminster"
119,51.525892999999996,-0.090847,18,2010-07-14 16:26:00,"Bath Street, St. Luke's"
120,51.515735,-0.09308000000000001,17,2010-07-15 09:44:00,"The Guildhall, Guildhall"
121,51.518913,-0.156166,22,2010-07-15 10:20:00,"Baker Street, Marylebone"
122,51.521113,-0.078869,23,2010-07-15 10:34:00,"Norton Folgate, Liverpool Street"
123,51.52836,-0.104724,18,2010-07-15 10:55:00,"St. John Street, Finsbury"
124,51.496544,-0.15090499999999998,20,2010-07-15 10:59:00,"Eaton Square, Belgravia"
125,51.500694,-0.094524,21,2010-07-15 11:10:00,"Borough High Street, The Borough"
126,51.517821,-0.096496,52,2010-07-15 11:29:00,"Museum of London, Barbican"
127,51.517008,-0.093885,17,2010-07-15 11:32:00,"Wood Street, Guildhall"
128,51.495362,-0.185296,22,2010-07-15 11:41:00,"Emperor's Gate, South Kensington"
129,51.511897,-0.137043,18,2010-07-15 12:55:00,"Golden Square, Soho"
130,51.509506,-0.075459,24,2010-07-15 13:00:00,"Tower Gardens , Tower"
131,51.533005,-0.136792,16,2010-07-15 13:08:00,"Eversholt Street , Camden Town"
132,51.523648,-0.074754,38,2010-07-15 13:12:00,"Bethnal Green Road, Shoreditch"
133,51.501364,-0.191462,18,2010-07-15 13:24:00,"Derry Street, Kensington"
134,51.504904,-0.06797,20,2010-07-15 13:35:00,"Wapping High Street, Wapping"
135,51.52326,-0.104708,21,2010-07-15 13:38:00,"Clerkenwell Green, Clerkenwell"
136,51.511961,-0.097441,32,2010-07-15 13:40:00,"Queen Victoria Street, St. Paul's"
138,51.512276,-0.157436,19,2010-07-15 14:47:00,"Green Street, Mayfair"
139,51.494881,-0.117974,18,2010-07-15 14:51:00,"Lambeth Road, Vauxhall"
140,51.520962,-0.085634,33,2010-07-15 14:53:00,"Finsbury Square , Moorgate"
141,51.515308,-0.147203,29,2010-07-15 16:23:00,"Chapel Place, Marylebone"
142,51.493724,-0.198286,24,2010-07-15 16:27:00,"West Cromwell Road, Earl's Court"
143,51.496886,-0.16120299999999999,24,2010-07-15 16:30:00,"Pont Street, Knightsbridge"
144,51.48894,-0.11143499999999999,47,2010-07-15 16:33:00,"Kennington Cross, Kennington"
145,51.500743,-0.202759,24,2010-07-15 16:43:00,"Ilchester Place, Kensington"
146,51.488365,-0.129361,35,2010-07-15 16:46:00,"Vauxhall Bridge , Pimlico"
148,51.492111,-0.138364,16,2010-07-15 17:36:00,"Tachbrook Street, Victoria"
149,51.484788,-0.11068299999999999,18,2010-07-15 17:36:00,"Kennington Road Post Office, Oval"
150,51.497056,-0.16891699999999998,28,2010-07-15 17:39:00,"Holy Trinity Brompton, Knightsbridge"
151,51.512136,-0.20155399999999998,26,2010-07-15 17:42:00,"Chepstow Villas, Notting Hill"
152,51.49217,-0.101536,21,2010-07-15 17:45:00,"Hampton Street, Walworth"
154,51.503791,-0.112824,35,2010-07-16 09:31:00,"Waterloo Station 3, Waterloo"
155,51.495866,-0.191933,19,2010-07-16 09:31:00,"Lexham Gardens, Kensington"
156,51.494436,-0.09292099999999999,33,2010-07-16 09:38:00,"New Kent Road, The Borough"
157,51.500397,-0.193068,37,2010-07-16 09:40:00,"Wright's Lane, Kensington"
158,51.490853,-0.19617,18,2010-07-16 09:42:00,"Trebovir Road, Earl's Court"
159,51.514619,-0.137841,39,2010-07-16 09:46:00,"Great Marlborough Street, Soho"
160,51.506633,-0.131773,20,2010-07-16 09:58:00,"Waterloo Place, St. James's"
161,51.492345,-0.141334,16,2010-07-16 13:29:00,"Guildhouse Street, Victoria"
162,51.517606,-0.12132799999999999,20,2010-07-16 13:32:00,"Southampton Place, Holborn"
163,51.493184,-0.167894,27,2010-07-16 13:35:00,"Sloane Avenue, Knightsbridge"
164,51.515607,-0.183118,16,2010-07-16 13:40:00,"Cleveland Gardens, Bayswater"
165,51.517932,-0.183716,15,2010-07-16 13:46:00,"Orsett Terrace, Bayswater"
166,51.501855,-0.159237,27,2010-07-16 13:49:00,"Seville Street, Knightsbridge"
167,51.49395,-0.147624,19,2010-07-16 14:10:00,"Eccleston Place, Victoria"
168,51.500401,-0.195455,19,2010-07-16 14:10:00,"Argyll Road, Kensington"
169,51.514746,-0.165164,18,2010-07-16 14:16:00,"Porchester Place, Paddington"
170,51.527842,-0.108068,30,2010-07-16 14:23:00,"Hardwick Street, Clerkenwell"
171,51.491615,-0.186753,14,2010-07-16 14:40:00,"Collingham Gardens, Earl's Court"
172,51.491211,-0.17371499999999998,19,2010-07-16 14:45:00,"Sumner Place, South Kensington"
173,51.50486,-0.11300099999999999,15,2010-07-16 15:05:00,"Waterloo Road, South Bank"
174,51.512529,-0.115163,36,2010-07-16 15:59:00,"Strand, Strand"
176,51.517919,-0.188098,23,2010-07-16 16:26:00,"Gloucester Terrace, Bayswater"
177,51.49616,-0.140947,25,2010-07-16 16:29:00,"Ashley Place, Victoria"
178,51.489856,-0.141923,19,2010-07-16 16:32:00,"Warwick Square, Pimlico"
181,51.499412,-0.15231699999999998,21,2010-07-16 16:41:00,"Belgrave Square, Belgravia"
182,51.522029,-0.165842,18,2010-07-17 10:39:00,"Bell Street , Marylebone"
183,51.482362,-0.136123,24,2010-07-17 10:56:00,"Riverlight North, Nine Elms"
184,51.520715,-0.145211,34,2010-07-17 10:58:00,"Portland Place, Marylebone"
185,51.488057,-0.140741,14,2010-07-17 11:16:00,"Alderney Street, Pimlico"
186,51.517335,-0.17581000000000002,16,2010-07-17 11:18:00,"South Wharf Road, Paddington"
187,51.492479,-0.17843299999999998,24,2010-07-17 11:22:00,"Queen's Gate (South), South Kensington"
188,51.516517,-0.16439299999999998,18,2010-07-17 14:26:00,"Nutford Place, Marylebone"
189,51.531666,-0.109914,18,2010-07-17 14:33:00,"Claremont Square, Angel"
190,51.489975,-0.132845,21,2010-07-17 15:38:00,"Rampayne Street, Pimlico"
191,51.503117,-0.15352000000000002,28,2010-07-17 16:12:00,"Hyde Park Corner, Hyde Park"
192,51.512515,-0.13320099999999999,16,2010-07-17 16:15:00,"Wardour Street, Soho"
193,51.505817,-0.100186,60,2010-07-17 18:47:59,"Bankside Mix, Bankside"
194,51.504627,-0.091773,56,2010-07-17 18:47:59,"Hop Exchange, The Borough"
195,51.507244,-0.106237,30,2010-07-17 18:47:59,"Milroy Walk, South Bank"
196,51.503688,-0.098497,17,2010-07-17 18:47:59,"Union Street, The Borough"
197,51.505569,-0.111606,27,2010-07-17 18:47:59,"Stamford Street, South Bank"
199,51.510484,-0.082989,24,2010-07-18 08:30:00,"Great Tower Street, Monument"
200,51.514924,-0.066078,14,2010-07-18 08:32:00,"LMU Commercial Road, Whitechapel"
201,51.522596,-0.161113,16,2010-07-18 09:08:00,"Dorset Square, Marylebone"
202,51.512363,-0.06954199999999999,37,2010-07-18 09:12:00,"Leman Street, Aldgate"
203,51.518218,-0.10079099999999999,15,2010-07-18 09:33:00,"West Smithfield Rotunda, Farringdon"
204,51.526599,-0.11243199999999999,19,2010-07-18 15:24:00,"Margery Street, Clerkenwell"
206,51.518154,-0.062697,36,2010-07-18 16:43:00,"New Road 1 , Whitechapel"
207,51.501352,-0.153194,18,2010-07-19 16:49:00,"Grosvenor Crescent, Belgravia"
208,51.525051,-0.16630399999999998,20,2010-07-18 17:03:00,"Mallory Street, Marylebone"
209,51.493583,-0.165101,30,2010-07-19 08:46:00,"Denyer Street, Knightsbridge"
210,51.516814,-0.151926,21,2010-07-19 10:26:00,"Hinde Street, Marylebone"
211,51.494645,-0.158105,34,2010-07-19 10:37:00,"Cadogan Place, Knightsbridge"
212,51.506584,-0.199004,17,2010-07-19 10:54:00,"Campden Hill Road, Notting Hill"
213,51.50274,-0.14956899999999998,36,2010-07-19 10:57:00,"Wellington Arch, Hyde Park"
214,51.526838,-0.13050399999999998,32,2010-07-19 11:00:00,"Endsleigh Gardens, Euston"
215,51.519069,-0.088285,54,2010-07-19 11:03:00,"Moorfields, Moorgate"
216,51.490944999999996,-0.18119000000000002,30,2010-07-19 11:12:00,"Old Brompton Road, South Kensington"
217,51.516154,-0.082422,16,2010-07-19 11:14:00,"Wormwood Street, Liverpool Street"
218,51.489716,-0.17019399999999998,20,2010-07-19 12:49:00,"St. Luke's Church, Chelsea"
219,51.490163,-0.19039299999999998,29,2010-07-19 13:25:00,"Bramham Gardens, Earl's Court"
220,51.490664,-0.166485,27,2010-07-19 13:32:00,"Chelsea Green, Chelsea"
221,51.494816,-0.130458,16,2010-07-19 15:10:00,"Horseferry Road, Westminster"
222,51.502757,-0.155349,43,2010-07-20 08:22:00,"Knightsbridge, Hyde Park"
223,51.491484,-0.09022000000000001,24,2010-07-20 08:27:00,"Rodney Road , Walworth"
225,51.509353,-0.19642199999999999,30,2010-07-20 08:58:00,"Notting Hill Gate Station, Notting Hill"
226,51.508446,-0.131961,24,2010-07-20 09:02:00,"Charles II Street, West End"
227,51.528915,-0.11548000000000001,23,2010-07-20 09:05:00,"Great Percy Street, Clerkenwell"
228,51.507424,-0.134621,40,2010-07-20 09:08:00,"St. James's Square, St. James's"
229,51.506543,-0.123179,24,2010-07-20 09:23:00,"Whitehall Place, Strand"
230,51.506692,-0.10313699999999999,31,2010-07-20 09:27:00,"Poured Lines, Bankside"
231,51.493967,-0.178732,31,2010-07-20 10:47:00,"Queen's Gate (Central), South Kensington"
232,51.51501,-0.11275299999999999,16,2010-07-20 10:54:00,"Carey Street, Holborn"
233,51.50777,-0.13069899999999998,22,2010-07-20 11:11:00,"Pall Mall East, West End"
234,51.534504,-0.10699199999999999,24,2010-07-20 11:18:00,"Liverpool Road (N1 Centre), Angel"
235,51.495718,-0.110889,36,2010-07-20 11:34:00,"Kennington Road  , Vauxhall"
236,51.51838,-0.073438,30,2010-07-20 11:39:00,"Fashion Street, Whitechapel"
237,51.509786,-0.068161,30,2010-07-22 11:44:00,"Dock Street, Wapping"
238,51.523353,-0.175116,32,2010-07-20 12:12:00,"Frampton Street, Paddington"
239,51.524438,-0.138019,26,2010-07-20 12:16:00,"Warren Street Station, Euston"
240,51.505459,-0.105692,14,2010-07-20 12:18:00,"Colombo Street, Southwark"
242,51.522008,-0.151359,23,2010-07-20 12:24:00,"Beaumont Street, Marylebone"
243,51.490962,-0.139625,25,2010-07-20 12:29:00,"Gloucester Street, Pimlico"
244,51.516118,-0.128585,18,2010-07-20 12:34:00,"Earnshaw Street , Covent Garden"
245,51.485357,-0.142207,29,2010-07-20 12:41:00,"Grosvenor Road, Pimlico"
246,51.522853,-0.099994,41,2010-07-20 15:29:00,"Berry Street, Clerkenwell"
247,51.530052,-0.168314,50,2010-07-20 15:32:00,"St. John's Wood Church, The Regent's Park"
248,51.506451,-0.17027899999999999,27,2010-07-20 15:36:00,"Triangle Car Park, Hyde Park"
249,51.498597,-0.096191,42,2010-07-20 15:40:00,"Harper Road, The Borough"
250,51.489932,-0.16272699999999998,10,2010-07-20 15:50:00,"Royal Avenue 1, Chelsea"
251,51.518908,-0.079249,34,2010-07-21 08:16:00,"Brushfield Street, Liverpool Street"
252,51.504636,-0.11654199999999999,30,2010-07-21 08:24:00,"Jubilee Gardens, South Bank"
253,51.534042,-0.086379,30,2010-07-21 08:27:00,"Shoreditch Park, Hoxton"
254,51.530515,-0.10640799999999999,18,2010-07-21 08:29:00,"Chadwell Street, Angel"
255,51.525575,-0.179592,22,2010-07-21 08:56:00,"Clifton Road, Maida Vale"
256,51.51362,-0.11676399999999999,15,2010-07-21 10:27:00,"Houghton Street, Strand"
257,51.522481,-0.154907,16,2010-07-21 10:29:00,"Westminster University, Marylebone"
258,51.501432,-0.17865599999999998,23,2010-07-21 10:33:00,"Kensington Gore, Knightsbridge"
259,51.491495,-0.154004,16,2010-07-21 10:45:00,"Bourne Street, Belgravia"
260,51.513684,-0.13558,18,2010-07-21 11:17:00,"Broadwick Street, Soho"
261,51.513489,-0.191351,16,2010-07-21 11:20:00,"Princes Square, Bayswater"
262,51.498744,-0.103132,35,2010-07-21 11:27:00,"LSBU (Borough Road), Elephant & Castle"
263,51.514225,-0.08066000000000001,21,2010-07-21 11:36:00,"St. Mary Axe, Aldgate"
264,51.526443,-0.10925599999999999,20,2010-07-21 11:42:00,"Tysoe Street, Clerkenwell"
265,51.515953,-0.16924899999999998,17,2010-07-21 12:12:00,"Southwick Street, Paddington"
266,51.501026,-0.180246,41,2010-07-21 12:16:00,"Queen's Gate (North), Kensington"
267,51.49206,-0.13222399999999998,22,2010-07-21 12:19:00,"Regency Street, Westminster"
268,51.493204,-0.14413199999999998,29,2010-07-21 12:22:00,"Belgrave Road, Victoria"
269,51.500823,-0.08974000000000001,46,2010-07-21 12:25:00,"Empire Square, The Borough"
270,51.486343,-0.12249199999999999,31,2010-07-21 13:53:00,"Kennington Lane Rail Bridge, Vauxhall"
271,51.535836,-0.15628499999999998,32,2010-07-21 14:02:00,"London Zoo,  The Regent's Park"
272,51.501444,-0.11069899999999999,22,2010-07-21 14:07:00,"Baylis Road, Waterloo"
273,51.506133,-0.114686,38,2010-07-21 14:10:00,"Belvedere Road 1, South Bank"
274,51.496712,-0.205284,36,2010-07-21 14:13:00,"Warwick Road, Olympia"
275,51.520044,-0.092176,19,2010-07-21 14:18:00,"Barbican Centre, Barbican"
276,51.509301,-0.08498499999999999,24,2010-07-21 14:40:00,"Lower Thames Street, Monument"
277,51.503157,-0.191496,17,2010-07-21 14:42:00,"Kensington Church Street, Kensington"
278,51.503493,-0.07962000000000001,17,2010-07-21 14:45:00,"Tooley Street, Bermondsey"
279,51.518622,-0.176645,25,2010-07-21 14:49:00,"North Wharf Road, Paddington"
280,51.490083,-0.16241799999999998,10,2010-07-21 15:34:00,"Royal Avenue 2, Chelsea"
281,51.495805,-0.127575,18,2010-07-21 15:37:00,"Smith Square, Westminster"
282,51.519064,-0.059642,42,2010-07-21 15:43:00,"Royal London Hospital, Whitechapel"
283,51.514409,-0.118478,16,2010-07-21 15:47:00,"Kingsway, Covent Garden"
284,51.49914,-0.11203099999999999,20,2010-07-21 15:53:00,"Lambeth North Station, Waterloo"
286,51.527294,-0.174653,35,2010-07-21 15:58:00,"St. John's Wood Road, St. John's Wood"
287,51.523673,-0.128377,23,2010-07-21 16:01:00,"Bedford Way, Bloomsbury"
288,51.492369,-0.147478,34,2010-07-22 10:17:00,"Elizabeth Bridge, Victoria"
289,51.50923,-0.15129599999999999,15,2010-07-22 10:21:00,"South Audley Street, Mayfair"
290,51.51678,-0.175488,15,2010-07-22 10:39:00,"Winsland Street, Paddington"
291,51.484839,-0.138089,32,2010-07-22 12:07:00,"Claverton Street, Pimlico"
292,51.498884,-0.16547099999999998,16,2010-07-22 12:10:00,"Montpelier Street, Knightsbridge"
293,51.498157,-0.20949399999999999,25,2010-07-22 12:13:00,"Kensington Olympia Station, Olympia"
294,51.488226,-0.135635,16,2010-07-22 12:15:00,"St. George's Square, Pimlico"
295,51.500296,-0.092762,27,2010-07-22 12:18:00,"Swan Street, The Borough"
296,51.493631,-0.190603,18,2013-08-23 11:56:00,"Knaresborough Place, Earl's Court"
297,51.496127,-0.106,17,2010-07-22 12:26:00,"Geraldine Street, Elephant & Castle"
298,51.502279,-0.07418899999999999,21,2010-07-22 13:34:00,"Curlew Street, Shad Thames"
299,51.493985,-0.136928,19,2010-07-22 14:16:00,"Vincent Square, Westminster"
300,51.505014,-0.17306000000000002,18,2010-07-22 14:25:00,"Serpentine Car Park, Hyde Park"
301,51.514759,-0.148105,24,2010-07-22 14:30:00,"Marylebone Lane, Marylebone"
302,51.466907,-0.216573,28,2010-07-22 15:26:00,"Putney Pier, Wandsworth"
303,51.502953,-0.15845599999999999,28,2010-07-22 15:32:00,"Albert Gate, Hyde Park"
305,51.486779,-0.115853,15,2010-07-22 16:25:00,"Kennington Lane Tesco, Vauxhall"
306,51.518162,-0.135025,16,2010-07-22 16:31:00,"Rathbone Street, Fitzrovia "
307,51.509908,-0.18784199999999998,24,2010-07-22 16:35:00,"Black Lion Gate, Kensington Gardens"
308,51.499075,-0.08566599999999999,20,2010-07-22 16:39:00,"Long Lane , Bermondsey"
309,51.509631,-0.119047,41,2010-07-23 08:51:00,"Embankment (Savoy), Strand"
310,51.490867,-0.116911,19,2010-07-23 10:06:00,"Black Prince Road, Vauxhall"
311,51.519181,-0.140485,24,2010-07-23 10:15:00,"Foley Street, Fitzrovia"
312,51.530889,-0.17677,20,2010-07-23 10:19:00,"Grove End Road, St. John's Wood"
313,51.517344,-0.138072,37,2010-07-23 10:22:00,"Wells Street, Fitzrovia "
314,51.500889,-0.083159,36,2010-07-23 11:28:00,"Tyers Gate, Bermondsey"
315,51.525367,-0.153463,16,2010-07-23 11:31:00,"The Tennis Courts, The Regent's Park"
317,51.496791,-0.093913,32,2010-07-23 11:38:00,"Dickens Square, Borough"
318,51.510048,-0.138846,18,2010-07-23 11:42:00,"Sackville Street, Mayfair"
319,51.527025,-0.088542,21,2010-07-23 13:06:00,"Baldwin Street, St. Luke's"
320,51.493573,-0.139956,26,2010-07-23 13:14:00,"Queen Mother Sports Centre, Victoria"
321,51.497855,-0.081608,24,2010-07-23 13:17:00,"Bermondsey Street, Bermondsey"
322,51.526293,-0.07395499999999999,26,2010-07-23 13:32:00,"Palissy Street, Shoreditch"
323,51.523196,-0.083067,24,2010-07-23 13:34:00,"Clifton Street, Shoreditch"
324,51.49652,-0.101384,15,2010-07-23 14:22:00,"Ontario Street, Elephant & Castle"
325,51.509087,-0.129697,18,2010-07-23 14:51:00,"St. Martin's Street, West End"
326,51.532661,-0.099981,26,2010-07-23 14:54:00,"Graham Street, Angel"
327,51.53095,-0.085603,22,2010-07-26 08:37:00,"New North Road 1, Hoxton"
328,51.53114,-0.086016,22,2010-07-26 08:39:00,"New North Road 2, Hoxton"
329,51.535892,-0.160854,24,2010-07-26 08:42:00,"Prince Albert Road, The Regent's Park"
330,51.516417,-0.179135,34,2010-07-26 10:48:00,"Eastbourne Mews, Paddington"
331,51.520858,-0.089887,30,2010-07-26 10:51:00,"Bunhill Row, Moorgate"
332,51.493343,-0.19475699999999999,20,2010-07-26 11:06:00,"Nevern Place, Earl's Court"
333,51.508605,-0.193764,37,2010-07-26 11:09:00,"Palace Gardens Terrace, Notting Hill"
334,51.505044,-0.115851,10,2010-07-26 12:33:00,"Concert Hall Approach 1, South Bank"
335,51.511968,-0.12071799999999999,33,2010-07-26 13:56:00,"Tavistock Street, Covent Garden"
336,51.504942,-0.115533,18,2010-07-26 14:00:00,"Concert Hall Approach 2, South Bank"
337,51.511084,-0.19752399999999998,16,2010-07-26 14:05:00,"Pembridge Villas, Notting Hill"
338,51.511756,-0.119643,24,2010-07-26 15:39:00,"Wellington Street , Strand"
339,51.533319,-0.11178099999999999,25,2010-07-26 16:10:00,"Risinghill Street, Angel"
340,51.514441,-0.087587,16,2010-07-27 16:37:00,"Bank of England Museum, Bank"
341,51.508103,-0.126021,23,2010-07-27 09:16:00,"Craven Street, Strand"
343,51.536922,-0.15018099999999998,36,2010-07-27 09:51:00,"London Zoo Car Park, The Regent's Park"
344,51.528246,-0.10102599999999999,17,2010-07-27 10:22:00,"Goswell Road (City Uni), Finsbury"
345,51.488023,-0.166878,33,2010-07-27 11:22:00,"Flood Street, Chelsea"
347,51.500139,-0.113936,17,2010-09-06 08:41:00,"Lower Marsh, Waterloo"
348,51.51217,-0.150481,17,2010-09-15 08:49:00,"Grosvenor Square, Mayfair"
349,51.51196,-0.142783,18,2010-09-15 09:32:00,"St. George Street, Mayfair"
350,51.501715,-0.17985399999999999,21,2010-09-29 10:31:00,"Queen's Gate, Kensington Gardens"
351,51.529423,-0.097122,28,2010-10-11 09:48:00,"Macclesfield Rd, St Lukes"
352,51.486965,-0.11662499999999999,19,2010-10-11 11:26:00,"Vauxhall Street, Vauxhall"
353,51.494591,-0.134234,17,2010-10-21 09:08:00,"Greycoat Street , Westminster"
354,51.506766999999996,-0.12370199999999999,37,2010-10-22 13:01:00,"Northumberland Avenue, Strand"
355,51.486575,-0.117286,21,2010-10-22 13:01:00,"Oval Way, Vauxhall"
356,51.494412,-0.17388099999999998,15,2010-10-25 12:18:00,"South Kensington Station, South Kensington"
357,51.520994,-0.139016,30,2010-10-26 11:27:00,"Howland Street, Fitzrovia"
358,51.516226,-0.12482599999999999,20,2010-11-18 11:31:00,"High Holborn , Covent Garden"
359,51.497829,-0.13544,18,2010-11-05 09:56:00,"Butler Place, Westminster"
360,51.496753,-0.138733,27,2010-11-05 11:56:00,"Howick Place, Westminster"
361,51.503919,-0.113426,55,2010-12-09 13:50:00,"Waterloo Station 2, Waterloo"
362,51.536264,-0.133952,57,2010-11-18 11:37:00,"Royal College Street, Camden Town"
363,51.529121,-0.171185,24,2010-11-16 12:50:00,"Lord's, St. John's Wood"
364,51.519656,-0.13233899999999998,41,2010-11-18 11:44:00,"Alfred Place, Bloomsbury"
365,51.530344,-0.100168,47,2010-11-24 13:00:00,"City Road, Angel"
366,51.510919,-0.15112599999999998,27,2010-11-25 12:08:00,"Millennium Hotel, Mayfair"
367,51.517372,-0.164207,16,2010-12-01 11:08:00,"Harrowby Street, Marylebone"
368,51.500241,-0.15934,25,2010-12-01 11:08:00,"Harriet Street, Knightsbridge"
370,51.520205,-0.174593,20,2010-12-06 14:55:00,"Paddington Green, Paddington"
371,51.49775,-0.10988,22,2010-12-07 09:07:00,"King Edward Walk, Waterloo"
372,51.515208,-0.117863,24,2010-12-07 09:10:00,"Sardinia Street, Holborn"
373,51.499806,-0.176415,18,2011-01-19 09:12:00,"Prince Consort Road, Knightsbridge"
374,51.504027,-0.11386399999999999,36,2010-12-07 12:42:00,"Waterloo Station 1, Waterloo"
375,51.501945,-0.19439199999999998,18,2010-12-08 10:57:00,"Kensington Town Hall, Kensington"
376,51.491884,-0.125674,24,2011-01-10 12:03:00,"Millbank Tower, Pimlico"
377,51.505354,-0.113656,15,2011-01-17 11:57:00,"Waterloo Bridge, South Bank"
378,51.495592,-0.179077,42,2011-01-27 09:45:00,"Natural History Museum, South Kensington"
379,51.514311,-0.200838,21,2011-01-27 09:48:00,"Turquoise Island, Notting Hill"
380,51.506864,-0.150666,21,2011-01-27 10:50:00,"Stanhope Gate, Mayfair"
381,51.51953,-0.13577699999999998,14,2011-01-28 08:36:00,"Charlotte Street, Fitzrovia"
382,51.509351,-0.147449,15,2011-02-08 10:02:00,"Farm Street, Mayfair"
383,51.513103,-0.131213,18,2011-02-02 12:20:00,"Frith Street, Soho"
384,51.496481,-0.192404,15,2011-02-03 11:18:00,"Marloes Road, Kensington"
386,51.513527,-0.13011,16,2011-02-03 11:29:00,"Moor Street, Soho"
387,51.493699,-0.12139399999999999,30,2011-02-07 11:19:00,"Fire Brigade Pier, Vauxhall"
388,51.510701,-0.121723,14,2011-02-08 16:23:00,"Southampton Street, Strand"
389,51.51013,-0.155757,18,2011-02-10 14:26:00,"Upper Grosvenor Street, Mayfair"
390,51.521776,-0.068856,41,2011-02-15 10:06:00,"Buxton Street 1, Shoreditch"
392,51.499428,-0.179702,21,2011-02-17 16:05:00,"Imperial College, Knightsbridge"
393,51.517334,-0.103604,15,2011-02-24 11:04:00,"Snow Hill, Farringdon"
394,51.524826,-0.17626799999999998,18,2011-02-28 16:00:00,"Aberdeen Place, St. John's Wood"
395,51.492462,-0.159919,15,2011-02-28 16:00:00,"Cadogan Gardens, Chelsea"
396,51.51809,-0.163609,16,2011-03-02 14:12:00,"Shouldham Street, Marylebone"
397,51.51348,-0.17977,16,2011-03-02 14:25:00,"Devonshire Terrace, Bayswater"
398,51.502319,-0.200742,30,2011-03-02 14:34:00,"Holland Park, Kensington"
399,51.522617,-0.071653,24,2011-03-08 11:15:00,"Brick Lane Market, Shoreditch"
400,51.517703,-0.154106,26,2011-03-08 11:21:00,"George Street, Marylebone"
401,51.528187,-0.075375,24,2011-03-08 13:55:00,"Columbia Road, Shoreditch"
402,51.522892,-0.171681,15,2011-03-08 14:01:00,"Penfold Street, Marylebone"
403,51.516892,-0.158249,16,2011-03-08 14:14:00,"George Place Mews, Marylebone"
404,51.502042,-0.1844,13,2011-03-09 11:13:00,"Palace Gate, Kensington Gardens"
405,51.494185,-0.18267000000000003,15,2011-03-09 11:15:00,"Gloucester Road Station, South Kensington"
408,51.519943,-0.170704,40,2011-04-05 12:23:00,"Paddington Green Police Station, Paddington"
409,51.493146,-0.099828,41,2011-04-05 12:23:00,"Strata, Elephant & Castle"
410,51.519968,-0.16977399999999998,64,2011-04-05 12:23:00,"Edgware Road Station, Marylebone"
411,51.493372,-0.09968,33,2011-04-05 12:23:00,"Walworth Road, Elephant & Castle"
412,51.488105,-0.110121,17,2011-04-05 12:23:00,"Cleaver Street, Kennington"
419,51.485821,-0.149004,15,2011-06-22 09:35:00,"Chelsea Bridge, Pimlico"
420,51.504043,-0.10531199999999999,37,2011-06-28 10:53:00,"Southwark Station 1, Southwark"
421,51.504044,-0.104778,45,2011-06-28 10:54:00,"Southwark Station 2, Southwark"
423,51.494561,-0.153933,31,2011-07-05 10:04:00,"Eaton Square (South), Belgravia"
424,51.490491,-0.14918599999999999,29,2011-12-22 10:52:00,"Ebury Bridge, Pimlico"
425,51.533379,-0.139159,38,2011-07-07 08:47:00,"Harrington Square 2, Camden Town"
426,51.493072,-0.12992499999999998,17,2011-07-12 09:42:00,"Vincent Street, Pimlico"
427,51.51397,-0.09294000000000001,43,2011-07-15 10:28:00,"Cheapside, Bank"
428,51.499917,-0.174554,20,2011-10-13 08:55:00,"Exhibition Road, Knightsbridge"
430,51.489020000000004,-0.17524,18,2011-12-22 10:33:00,"South Parade, Chelsea"
431,51.534474,-0.12220299999999999,20,2011-12-08 14:37:00,"Crinan Street, King's Cross"
432,51.496957,-0.173894,22,2011-10-24 09:32:00,"Exhibition Road Museums, South Kensington"
433,51.524564,-0.116279,33,2011-12-08 16:26:00,"Wren Street, Holborn"
435,51.488852,-0.10559299999999999,23,2011-12-08 12:07:00,"Kennington Station, Kennington"
436,51.51824,-0.11655000000000001,35,2011-12-08 13:17:00,"Red Lion Street, Holborn"
437,51.488124,-0.120903,27,2012-01-05 06:53:00,"Vauxhall Walk, Vauxhall"
439,51.5338,-0.11867699999999999,22,2012-01-04 19:31:00,"Killick Street, King's Cross"
440,51.483145,-0.113134,33,2012-01-04 20:16:00,"Kennington Oval, Oval"
441,51.495656,-0.114605,24,2012-01-04 21:07:00,"Sail Street, Vauxhall"
442,51.510101,-0.211358,24,2012-01-07 12:47:00,"Walmer Road, Avondale"
443,51.515256,-0.058641,30,2012-01-07 13:10:00,"Philpot Street, Whitechapel"
444,51.52568,-0.055312,24,2012-01-07 13:58:00,"Bethnal Green Garden, Bethnal Green"
445,51.52388,-0.065076,28,2012-01-07 14:17:00,"Cheshire Street, Bethnal Green"
446,51.528936,-0.055894,27,2012-01-07 15:08:00,"York Hall, Bethnal Green"
447,51.493381,-0.007541999999999999,54,2012-01-07 15:10:00,"Jubilee Crescent, Cubitt Town"
448,51.50623,-0.02296,36,2012-01-07 16:11:00,"Fisherman's Walk West, Canary Wharf"
449,51.511088,-0.057158999999999995,35,2012-01-07 16:15:00,"Shadwell Station, Shadwell"
450,51.515975,-0.053176999999999995,28,2012-01-09 10:34:00,"Jubilee Street, Stepney"
451,51.504719,-0.06353099999999999,16,2012-01-02 10:50:00,"Hermitage Court, Wapping"
452,51.505697,-0.070542,24,2012-01-09 11:39:00,"St. Katharine's Way, Tower"
453,51.508447,-0.055167,24,2012-01-09 12:11:00,"Garnet Street, Shadwell"
454,51.487679,-0.021582,20,2012-01-09 13:23:00,"Napier Avenue, Millwall"
455,51.49447,-0.014409,17,2012-01-09 14:03:00,"East Ferry Road, Cubitt Town"
456,51.538071,-0.144664,33,2012-01-10 12:13:00,"Parkway, Camden Town"
457,51.542138,-0.145393,29,2012-01-10 13:48:00,"Castlehaven Road, Camden Town"
458,51.504749,-0.057544,28,2012-01-11 15:13:00,"Wapping Lane, Wapping"
459,51.535179,-0.03338,17,2012-01-11 12:27:00,"Gunmakers Lane, Old Ford"
460,51.516196,-0.029137999999999997,33,2012-01-11 12:27:00,"Burdett Road, Mile End"
461,51.516,-0.038775,26,2012-01-11 14:54:00,"Aston Street, Stepney"
462,51.541603,-0.138853,45,2012-01-11 15:10:00,"Bonny Street, Camden Town"
463,51.534776,-0.071881,22,2012-01-11 18:03:00,"Thurtle Road, Haggerston"
464,51.51417,-0.052099,25,2012-01-11 18:03:00,"St. Mary & St. Michael Church, Stepney"
465,51.53558,-0.08249000000000001,28,2012-04-05 08:08:00,"Pitfield Street North,Hoxton"
466,51.534464,-0.07634099999999999,21,2012-01-12 09:20:00,"Whiston Road, Haggerston"
467,51.523538,-0.030556,17,2012-01-12 13:14:00,"Southern Grove, Bow"
468,51.521564,-0.022694,24,2012-01-12 13:42:00,"Cantrell Road, Bow"
469,51.513757,-0.020467,44,2012-01-12 15:11:00,"Lindfield Street, Poplar"
470,51.530535,-0.025491999999999997,46,2012-01-17 08:57:00,"Mostyn Grove, Bow"
471,51.533283,-0.028155,19,2012-01-17 09:01:00,"Hewison Street, Old Ford"
472,51.529452,-0.027615999999999998,21,2012-01-17 09:06:00,"Malmesbury Road, Bow"
473,51.496137,-0.019355,19,2012-01-17 16:09:00,"Millharbour, Millwall"
474,51.498125,-0.011457,39,2012-01-17 17:56:00,"Castalia Square, Cubitt Town"
475,51.499041,-0.020156999999999998,57,2012-01-17 18:38:00,"Lightermans Road, Millwall"
476,51.489096,-0.009205,29,2012-01-19 08:35:00,"Stebondale Street, Cubitt Town"
477,51.49109,-0.018716,36,2012-01-19 09:03:00,"Spindrift Avenue, Millwall"
478,51.521889,-0.04667,21,2012-01-19 09:33:00,"Stepney Green Station, Stepney"
479,51.527152,-0.058004999999999994,20,2012-01-19 09:44:00,"Pott Street, Bethnal Green"
480,51.512871,-0.038986,25,2012-01-19 12:17:00,"Flamborough Street, Limehouse"
481,51.487129,-0.009001,35,2012-01-19 18:08:00,"Saunders Ness Road, Cubitt Town"
483,51.51328,-0.047784,33,2012-01-20 19:38:00,"Albert Gardens, Stepney"
484,51.528828,-0.013257999999999999,24,2012-01-23 17:29:00,"Bromley High Street, Bow"
485,51.531127,-0.048017,24,2012-01-22 18:04:00,"Old Ford Road, Bethnal Green"
486,51.525645,-0.069543,37,2012-01-23 17:11:00,"Granby Street, Shoreditch"
487,51.511811,-0.025626,23,2012-01-30 15:21:00,"Canton Street, Poplar"
488,51.506946,-0.058681,22,2012-01-22 17:56:00,"Reardon Street, Wapping"
489,51.513074,-0.064094,34,2012-01-20 19:32:00,"Christian Street, Whitechapel"
490,51.508622,-0.065006,45,2012-01-22 18:17:00,"Pennington Street, Wapping"
491,51.522507,-0.041378,45,2012-01-22 18:17:00,"Queen Mary's, Mile End"
492,51.524677,-0.035620000000000006,63,2012-01-22 18:22:00,"The Green Bridge, Mile End"
494,51.50196,-0.016250999999999998,36,2012-01-24 19:27:00,"South Quay East, Canary Wharf"
495,51.528169,-0.018703,39,2012-01-23 17:41:00,"Bow Church Station, Bow"
496,51.52512,-0.015578,39,2012-01-24 10:27:00,"Devons Road, Bow"
497,51.526177,-0.027467,26,2012-01-24 09:47:00,"Merchant Street, Bow"
498,51.527058,-0.025296,41,2012-01-24 09:51:00,"Bow Road Station, Bow"
499,51.519265,-0.021345,36,2012-01-24 12:26:00,"Furze Green, Bow"
500,51.519806,-0.055730999999999996,41,2012-01-24 18:34:00,"Ansell House, Stepney"
501,51.522561,-0.054882999999999994,24,2012-01-24 18:37:00,"Cephas Street, Bethnal Green"
503,51.520893,-0.051393999999999995,36,2012-01-25 12:02:00,"Cleveland Way, Stepney"
504,51.496454,-0.009505999999999999,30,2012-01-30 15:37:00,"St. John's Park, Cubitt Town"
505,51.520398,-0.026768,29,2012-01-30 15:31:00,"Ackroyd Drive, Bow"
506,51.517475,-0.07585499999999999,23,2012-01-30 15:51:00,"Bell Lane, Liverpool Street"
507,51.528692,-0.059091,31,2012-01-30 15:47:00,"Clarkson Street, Bethnal Green"
508,51.519362,-0.074431,18,2012-01-30 15:43:00,"Fournier Street, Whitechapel"
509,51.517842,-0.090075,19,2012-01-30 15:42:00,"Fore Street, Guildhall"
510,51.509303,-0.025996,41,2012-01-30 15:39:00,"Westferry DLR, Limehouse"
511,51.511066,-0.053557999999999995,33,2012-01-30 15:39:00,"Sutton Street, Shadwell"
512,51.532091,-0.06142,30,2012-02-01 16:10:00,"Pritchard's Road, Bethnal Green"
513,51.514222,-0.055656,51,2012-02-02 16:52:00,"Watney Market, Stepney"
514,51.516204,-0.155525,17,2012-02-02 16:52:00,"Portman Square, Marylebone"
515,51.500088,-0.211316,24,2012-02-02 17:07:00,"Russell Gardens, Olympia"
516,51.5112,-0.014438,18,2012-02-02 17:07:00,"Chrisp Street Market, Poplar"
517,51.532513,-0.033084999999999996,17,2012-01-17 09:01:00,"Ford Road, Old Ford"
518,51.528224,-0.037471,30,2012-02-06 07:58:00,"Antill Road, Mile End"
519,51.518811,-0.011661999999999999,33,2012-02-06 07:58:00,"Teviot Street, Poplar"
520,51.526041,-0.047217999999999996,21,2012-02-06 07:58:00,"Bancroft Road, Bethnal Green"
521,51.534137,-0.037365999999999996,19,2012-02-06 07:58:00,"Driffield Road, Old Ford"
522,51.525941,-0.036017,36,2012-02-06 07:58:00,"Clinton Road, Mile End"
523,51.51549,-0.013474999999999999,24,2012-02-06 07:58:00,"Langdon Park, Poplar"
524,51.511654,-0.179668,38,2012-02-06 07:58:00,"Lancaster Gate , Bayswater"
526,51.503143,-0.008428,27,2012-02-09 08:48:00,"Lancaster Drive, Blackwall"
527,51.503802,-0.215808,20,2012-02-09 08:48:00,"Hansard Mews, Holland Park"
528,51.507326,-0.14582699999999998,16,2012-02-09 08:58:00,"Clarges Street, Mayfair"
529,51.486892,-0.170983,18,2012-02-09 09:14:00,"Manresa Road, Chelsea"
530,51.508896,-0.012412999999999999,18,2012-02-09 09:14:00,"Newby Place, Poplar"
531,51.530326,-0.042744,21,2012-02-09 09:14:00,"Twig Folly Bridge, Mile End"
532,51.50357,-0.020068,63,2012-02-10 15:06:00,"Jubilee Plaza, Canary Wharf"
533,51.528222,-0.069743,33,2012-02-27 14:28:00,"Wellington Row, Bethnal Green"
534,51.531864,-0.066035,27,2012-02-27 14:28:00,"Goldsmith's Row, Haggerston"
535,51.537349,-0.147154,24,2012-02-27 14:28:00,"Gloucester Avenue, Camden Town"
536,51.53385,-0.06992000000000001,35,2012-02-27 14:28:00,"Queensbridge Road, Haggerston"
537,51.51793,-0.067937,18,2012-02-27 14:28:00,"Old Montague Street, Whitechapel"
538,51.508981,-0.0069900000000000006,21,2012-02-24 08:22:00,"Naval Row, Blackwall"
539,51.531091,-0.075901,22,2012-02-24 08:22:00,"Hoxton Station, Hoxton"
540,51.528302,-0.14446599999999998,27,2012-02-24 08:22:00,"Albany Street, The Regent's Park"
541,51.506613,-0.142844,28,2012-02-24 08:22:00,"Green Park Station, Mayfair"
542,51.514115,-0.033828,33,2012-02-24 08:22:00,"Salmon Lane, Limehouse"
543,51.509591,-0.204666,21,2012-02-24 08:22:00,"Lansdowne Walk, Ladbroke Grove"
544,51.526153,-0.102208,22,2012-02-24 08:22:00,"Percival Street, Finsbury"
545,51.539957,-0.145246,24,2012-02-24 08:22:00,"Arlington Road, Camden Town"
546,51.517428,-0.107987,21,2012-02-24 08:22:00,"New Fetter Lane, Holborn"
547,51.509474,-0.002275,51,2012-02-24 08:22:00,"East India DLR, Blackwall"
548,51.498385999999996,-0.107913,26,2012-02-24 08:22:00,"Westminster Bridge Road, Elephant & Castle"
549,51.49605,-0.104193,45,2012-02-24 08:22:00,"Gaywood  Street, Elephant & Castle"
550,51.521564,-0.039264,23,2012-02-24 08:22:00,"Harford Street, Mile End"
551,51.505772,-0.016460000000000002,39,2012-02-24 08:22:00,"Import Dock, Canary Wharf"
552,51.511542,-0.056666999999999995,27,2014-05-09 11:32:00,"Watney Street, Shadwell"
553,51.535678,-0.06254599999999999,24,2014-05-09 11:32:00,"Regent's Row , Haggerston "
554,51.513548,-0.005659,16,2014-05-09 11:32:00,"Aberfeldy Street, Poplar"
556,51.502661,-0.021596,27,2014-05-09 11:32:00,"Heron Quays DLR, Canary Wharf"
557,51.51601,-0.0985,20,2014-05-09 11:32:00,"King Edward Street, St Pauls"
558,51.493978,-0.127554,24,2014-05-09 11:32:00,"Page Street, Westminster"
559,51.501391,-0.20599099999999998,24,2012-02-29 08:19:00,"Abbotsbury Road, Holland Park"
560,51.511624,-0.205921,21,2012-02-29 08:19:00,"Ladbroke Grove Central, Ladbroke Grove"
561,51.518369,-0.043371,22,2012-02-29 08:19:00,"Rectory Square, Stepney"
562,51.51746,-0.12335000000000002,21,2012-02-29 08:17:00,"Bury Place, Holborn"
563,51.499286,-0.009152,26,2012-03-05 08:59:00,"Preston's Road, Cubitt Town"
564,51.509943,-0.117619,41,2012-03-05 08:59:00,"Somerset House, Strand"
565,51.521905,-0.063386,17,2012-03-05 08:59:00,"Selby Street, Whitechapel"
566,51.509158,-0.224103,42,2012-03-05 08:59:00,"Westfield Ariel Way, White City"
568,51.51616,-0.18697000000000003,18,2012-03-03 11:13:00,"Bishop's Bridge Road West, Bayswater"
569,51.53213,-0.08299000000000001,30,2012-03-03 11:13:00,"Pitfield Street Central, Hoxton"
570,51.503083,-0.017676,36,2012-03-03 11:13:00,"Upper Bank Street, Canary Wharf"
571,51.506256,-0.218337,29,2012-03-01 16:43:00,"Westfield Southern Terrace ,Shepherd's Bush"
572,51.539099,-0.141728,36,2012-03-15 07:21:00,"Greenland Road, Camden Town"
573,51.485587,-0.18119000000000002,18,2012-03-15 07:21:00,"Limerston Street, West Chelsea"
574,51.53356,-0.09315000000000001,45,2012-04-05 09:36:00,"Eagle Wharf Road, Hoxton"
576,51.497304,-0.022792999999999997,22,2012-02-28 15:58:00,"Alpha Grove, Millwall"
577,51.528869,-0.047548,20,2012-02-28 15:58:00,"Globe Town Market, Bethnal Green"
578,51.527607,-0.057132999999999996,32,2012-02-28 15:58:00,"Hollybush Gardens, Bethnal Green"
579,51.511246,-0.093051,36,2014-02-12 12:35:00,"Queen Street 2, Bank"
580,51.486929,-0.10299599999999999,36,2014-02-12 12:35:00,"Doddington Grove, Kennington"
581,51.519167,-0.147983,18,2012-03-16 07:39:00,"New Cavendish Street, Marylebone"
583,51.497622,-0.125978,20,2012-03-15 07:40:00,"Abingdon Green, Westminster"
584,51.51244,-0.19096000000000002,21,2012-03-15 07:40:00,"Ilchester Gardens, Bayswater"
586,51.490645,-0.014582,31,2012-03-15 07:40:00,"Mudchute DLR, Cubitt Town"
587,51.50964,-0.08497,22,2012-03-22 08:52:00,"Monument Street, Monument"
588,51.52959,-0.0801,27,2012-03-05 08:57:00,"Hoxton Street, Hoxton"
589,51.487196,-0.179369,18,2012-03-03 07:30:00,"Drayton Gardens, West Chelsea"
590,51.53256,-0.16862000000000002,26,2012-03-03 07:30:00,"Greenberry Street, St.John's Wood"
591,51.506093,-0.22422299999999998,27,2012-03-03 07:30:00,"Westfield Library Corner, Shepherd's Bush"
592,51.5171,-0.18377000000000002,20,2012-03-14 07:38:00,"Bishop's Bridge Road East, Bayswater"
593,51.531066,-0.11934000000000002,21,2012-03-14 07:38:00,"Northdown Street, King's Cross"
594,51.513875,-0.11777399999999999,33,2012-03-14 07:38:00,"Kingsway Southbound, Strand"
595,51.493267,-0.21985000000000002,22,2017-07-31 23:45:00,"Hammersmith Road, Hammersmith"
596,51.472817,-0.199783,21,2017-07-31 23:45:00,"Parson's Green , Parson's Green"
597,51.473471,-0.20782,27,2017-07-31 23:45:00,"Fulham Park Road, Fulham"
598,51.494499,-0.228188,38,2017-07-31 23:45:00,"Southerton Road, Hammersmith"
599,51.485743,-0.22361599999999998,28,2013-09-25 11:53:00,"Manbre Road, Hammersmith"
600,51.481747,-0.12464199999999999,21,2013-09-25 11:53:00,"South Lambeth Road, Vauxhall"
601,51.514767,-0.225787,36,2013-09-25 11:53:00,"BBC White City, White City"
602,51.472993,-0.133972,45,2013-09-25 11:53:00,"Union Grove, Wandsworth Road"
603,51.477839,-0.116493,44,2013-09-25 11:53:00,"Caldwell Street, Stockwell"
604,51.538792,-0.138535,18,2013-09-25 11:53:00,"St Martins Close, Camden Town"
605,51.520331,-0.16366699999999998,29,2013-09-25 11:53:00,"Seymour Place, Marylebone"
606,51.504199,-0.210941,26,2013-09-25 11:53:00,"Addison Road, Holland Park"
607,51.468814,-0.210279,21,2013-09-25 11:53:00,"Putney Bridge Station, Fulham"
608,51.491093,-0.216493,30,2013-09-25 11:53:00,"Colet Gardens, Hammersmith"
609,51.465123,-0.15778799999999998,19,2013-09-25 11:53:00,"Sugden Road, Clapham"
610,51.482567,-0.17207799999999998,21,2013-09-25 12:51:00,"Danvers Street, West Chelsea"
611,51.506465,-0.20848599999999998,20,2013-09-26 13:59:00,"Princedale Road , Holland Park"
612,51.469259,-0.141812,30,2013-09-27 15:10:00,"Wandsworth Rd, Isley Court, Wandsworth Road"
613,51.504038,-0.2174,24,2013-09-26 16:11:00,"Woodstock Grove, Shepherd's Bush"
614,51.478172,-0.14469,40,2013-10-03 10:10:00,"Bradmead, Battersea Park"
615,51.476885,-0.215895,24,2013-09-27 13:35:00,"Finlay Street, Fulham"
616,51.481021,-0.209973,24,2013-09-30 08:59:00,"Aintree Street, Fulham"
617,51.471079,-0.207842,21,2013-09-30 08:59:00,"Elysium Place, Fulham"
618,51.476259,-0.19325399999999998,24,2013-09-30 13:09:00,"Eel Brook Common, Walham Green"
619,51.473763,-0.19701000000000002,43,2013-09-30 14:46:00,"Irene Road, Parsons Green"
620,51.47518,-0.16716,28,2013-10-01 12:04:00,"Surrey Lane, Battersea"
621,51.460864,-0.18742699999999998,33,2013-10-04 15:08:00,"Wandsworth Town Station, Wandsworth"
622,51.507481,-0.205535,29,2013-10-04 15:48:00,"Lansdowne Road, Ladbroke Grove"
623,51.46193,-0.18079099999999998,22,2013-10-07 08:42:00,"Nantes Close, Wandsworth"
624,51.472918,-0.132102,40,2013-10-08 09:24:00,"Courland Grove, Wandsworth Road"
625,51.477619,-0.149551,28,2013-10-08 10:18:00,"Queen's Circus, Battersea Park"
626,51.484386,-0.204815,24,2013-10-16 10:45:00,"Normand Park, West Kensington"
627,51.46879,-0.15823,20,2013-10-16 13:50:00,"Holden Street, Battersea"
628,51.468819,-0.18431799999999998,26,2013-10-10 14:23:00,"William Morris Way, Sands End"
629,51.459953,-0.190184,28,2013-10-11 08:18:00,"Morie Street, Wandsworth"
630,51.470732,-0.126994,28,2013-10-11 10:25:00,"Clarence Walk, Stockwell"
631,51.479501,-0.14177,27,2013-10-08 15:15:00,"Battersea Park Road, Nine Elms"
632,51.470538,-0.163041,28,2013-10-08 08:25:00,"Sheepcote Lane, Battersea"
633,51.489591,-0.20937799999999998,32,2013-10-10 11:02:00,"Vereker Road, West Kensington"
634,51.494347,-0.215804,33,2013-10-14 09:43:00,"Brook Green South, Brook Green"
635,51.486062,-0.21442799999999998,37,2013-10-14 13:14:00,"Greyhound Road, Hammersmith"
636,51.467064,-0.19350199999999998,28,2013-10-15 14:12:00,"South Park, Sands End"
637,51.45787,-0.17469099999999999,25,2013-10-16 14:28:00,"Spencer Park, Wandsworth Common"
638,51.466633,-0.169821,28,2013-10-15 10:47:00,"Falcon Road, Clapham Junction"
639,51.48357,-0.202038,27,2013-10-15 11:15:00,"Coomer Place, West Kensington"
640,51.472865,-0.148059,28,2013-10-17 11:47:00,"Silverthorne Road, Battersea"
641,51.498241,-0.11749499999999999,23,2013-10-16 12:35:00,"Archbishop's Park, Waterloo"
642,51.469161,-0.174485,36,2013-10-16 14:37:00,"Fawcett Close, Battersea"
643,51.519042,-0.204764,22,2013-10-17 11:52:00,"All Saints' Road, Portobello"
644,51.483732,-0.223852,36,2013-10-20 14:16:00,"Rainville Road, Hammersmith"
645,51.501732,-0.10029199999999999,21,2013-10-18 15:40:00,"Great Suffolk Street, The Borough"
646,51.498865,-0.137424,16,2013-10-18 08:19:00,"Buckingham Gate, Westminster"
647,51.500353,-0.217515,27,2013-10-21 09:19:00,"Richmond Way, Shepherd's Bush"
648,51.46904,-0.196274,30,2013-10-21 10:54:00,"Peterborough Road, Sands End"
649,51.481805,-0.180274,22,2013-10-21 09:40:00,"World's End Place, West Chelsea"
650,51.51687,-0.21387199999999998,23,2013-10-22 10:42:00,"St. Mark's Road, North Kensington"
651,51.480898,-0.183853,25,2013-10-22 11:33:00,"Thorndike Close, West Chelsea"
652,51.511486,-0.21819000000000002,29,2013-10-15 14:49:00,"Evesham Street, Avondale"
653,51.470847,-0.170703,25,2013-10-23 14:51:00,"Simpson Street, Clapham Junction"
654,51.482678,-0.11766099999999999,34,2013-10-23 09:20:00,"Ashmole Estate, Oval"
655,51.482944,-0.21934599999999999,27,2013-10-24 10:40:00,"Crabtree Lane, Fulham"
656,51.468418,-0.19913499999999998,29,2013-10-24 11:36:00,"Broomhouse Lane, Parsons Green"
657,51.49968,-0.221791,21,2013-10-24 13:30:00,"Blythe Road West, Shepherd's Bush"
658,51.477292,-0.164786,30,2013-11-06 09:45:00,"Ethelburga Estate, Battersea Park"
660,51.49087,-0.206029,22,2013-10-25 12:49:00,"West Kensington Station, West Kensington"
661,51.51632,-0.20260799999999998,37,2013-10-27 15:28:00,"All Saints Church, Portobello"
663,51.51323,-0.211593,24,2013-10-27 10:34:00,"Clarendon Road, Avondale"
664,51.474376,-0.155442,24,2013-10-28 12:45:00,"Austin Road, Battersea Park"
665,51.461083,-0.191722,28,2013-10-28 15:55:00,"Smugglers Way, Wandsworth"
666,51.4961,-0.20815799999999998,38,2013-10-29 16:18:00,"Olympia Way, Olympia"
667,51.501594,-0.222293,34,2013-10-30 12:29:00,"Shepherd's Bush Road North, Shepherd's Bush"
668,51.494223,-0.23676899999999998,26,2013-10-30 14:26:00,"Ravenscourt Park Station, Hammersmith"
669,51.476149,-0.12325799999999999,39,2013-10-30 15:41:00,"Teversham Lane, Stockwell"
670,51.467185,-0.152248,28,2013-10-31 09:44:00,"Ashley Crescent, Battersea"
671,51.475089,-0.20196799999999998,56,2013-10-31 11:12:00,"Parsons Green Station, Parsons Green"
673,51.46517,-0.180389,36,2013-11-01 15:25:00,"Hibbert Street, Battersea"
674,51.535467,-0.11619099999999999,40,2013-11-01 16:12:00,"Carnegie Street, King's Cross"
675,51.463489,-0.18212599999999998,30,2013-11-01 16:12:00,"Usk Road, Clapham Junction"
676,51.47787,-0.126874,35,2013-11-04 17:00:00,"Hartington Road, Stockwell"
677,51.468669,-0.14654399999999998,27,2013-11-03 10:56:00,"Heath Road, Battersea"
678,51.462312,-0.211468,30,2013-11-05 12:13:00,"Esmond Street, Putney"
679,51.474535,-0.17021,26,2013-11-05 14:20:00,"Orbel Street, Battersea"
680,51.477683999999996,-0.17032899999999998,28,2013-11-05 13:18:00,"Westbridge Road, Battersea"
681,51.473036,-0.214749,46,2013-11-06 10:24:00,"Bishop's Avenue, Fulham"
682,51.488108,-0.226606,46,2013-11-06 11:44:00,"Crisp Road, Hammersmith"
683,51.465064,-0.16375,28,2013-11-06 15:07:00,"Dorothy Road, Clapham Junction"
684,51.454752,-0.19519699999999998,32,2013-11-07 11:23:00,"Neville Gill Close, Wandsworth"
685,51.46067,-0.198735,30,2013-11-07 12:30:00,"Osiers Road, Wandsworth"
686,51.488144,-0.222456,26,2013-11-07 14:46:00,"Beryl Road, Hammersmith"
687,51.497608,-0.211455,26,2013-11-07 15:34:00,"Maclise Road, Olympia"
688,51.460951,-0.20066699999999998,28,2013-11-08 12:54:00,"Northfields, Wandsworth"
689,51.459225,-0.180884,30,2013-11-08 13:43:00,"Spanish Road, Clapham Junction"
690,51.470475,-0.15213000000000002,24,2013-11-08 15:31:00,"Stanley Grove, Battersea"
691,51.479463,-0.19577699999999998,24,2013-11-18 08:32:00,"Erin Close, Walham Green"
692,51.542118,-0.028940999999999998,22,2013-11-11 10:37:00,"Cadogan Close, Victoria Park"
693,51.464786,-0.215618,18,2013-11-09 12:46:00,"Felsham Road, Putney"
694,51.460717,-0.216526,20,2013-11-09 13:44:00,"Putney Rail Station, Putney"
695,51.536384,-0.102757,21,2013-11-11 12:27:00,"Islington Green, Angel"
696,51.487285,-0.217995,21,2013-11-11 14:27:00,"Charing Cross Hospital, Hammersmith"
697,51.536392,-0.112721,25,2013-11-12 10:12:00,"Charlotte Terrace, Angel"
698,51.539083,-0.070329,35,2013-11-12 11:05:00,"Shoreditch Court, Haggerston"
699,51.536654,-0.07023,39,2013-11-12 11:34:00,"Belford House, Haggerston"
700,51.476964,-0.174347,25,2013-11-13 11:48:00,"Battersea Church Road, Battersea"
701,51.472876,-0.17626699999999998,30,2013-11-13 12:18:00,"Vicarage Crescent, Battersea"
702,51.528681,-0.06555000000000001,24,2013-11-13 12:31:00,"Durant Street, Bethnal Green"
703,51.515059,-0.105344,25,2013-11-13 15:50:00,"St. Bride Street, Holborn"
704,51.45682,-0.20280199999999998,18,2013-11-14 15:38:00,"Mexfield Road, East Putney"
706,51.502153,-0.083632,31,2013-11-14 09:22:00,"Snowsfields, London Bridge"
707,51.490217,-0.215087,32,2013-11-14 13:28:00,"Barons Court Station, West Kensington"
708,51.46161,-0.216145,33,2013-11-15 15:43:00,"Disraeli Road, Putney"
709,51.463211,-0.21555000000000002,23,2013-11-15 10:09:00,"Montserrat Road , Putney"
710,51.474392,-0.163347,20,2013-11-15 13:03:00,"Albert Bridge Road, Battersea Park"
711,51.483356,-0.216305,31,2013-11-18 16:19:00,"Everington Street, Fulham"
712,51.518541,-0.034902999999999997,22,2013-11-18 17:52:00,"Mile End Stadium, Mile End"
713,51.541007,-0.14326,22,2013-11-18 11:37:00,"Hawley Crescent, Camden Town"
714,51.473116,-0.137235,28,2013-11-19 12:50:00,"Stewart's Road, Wandsworth Road"
715,51.51563,-0.049067,22,2013-11-19 13:41:00,"Aylward Street, Stepney"
716,51.515427,-0.023565,24,2013-11-19 15:05:00,"Stainsby Road , Poplar"
717,51.536585,-0.075885,43,2013-11-20 13:00:00,"Dunston Road , Haggerston"
718,51.535716,-0.060291,45,2013-11-20 15:54:00,"Ada Street, Hackney Central"
719,51.536424,-0.054161999999999995,34,2013-11-20 17:28:00,"Victoria Park Road, Hackney Central"
720,51.487244,-0.205279,23,2013-11-21 09:24:00,"Star Road, West Kensington"
721,51.536039,-0.026261999999999997,18,2013-11-21 10:08:00,"Wendon Street, Old Ford"
722,51.524583,-0.058630999999999996,19,2013-11-21 10:10:00,"Finnis Street, Bethnal Green"
723,51.46822,-0.190346,48,2013-11-21 12:03:00,"Stephendale Road, Sands End"
724,51.457991,-0.184806,28,2013-11-22 13:03:00,"Alma Road, Wandsworth"
726,51.47505,-0.150908,22,2013-11-22 13:59:00,"Alfreda Street, Battersea Park"
727,51.475698,-0.205876,23,2013-11-22 14:56:00,"Chesilton Road, Fulham"
728,51.461999,-0.20624,29,2013-11-26 11:53:00,"Putney Bridge Road, East Putney"
729,51.478939,-0.208485,24,2013-11-25 14:55:00,"St. Peter's Terrace, Fulham"
730,51.492084,-0.229116,18,2013-11-22 15:03:00,"Bridge Avenue, Hammersmith"
731,51.477276,-0.18921000000000002,37,2013-11-25 15:52:00,"Michael Road, Walham Green"
732,51.506304,-0.08726199999999999,21,2013-11-26 09:27:00,"Duke Street Hill, London Bridge"
733,51.505426,-0.150817,18,2013-11-26 10:14:00,"Park Lane, Mayfair"
734,51.462305,-0.17540699999999998,31,2013-11-26 11:15:00,"Plough Terrace, Clapham Junction"
735,51.464894,-0.173029,28,2013-11-25 12:38:00,"Grant Road East, Clapham Junction"
736,51.50659,-0.216104,28,2013-11-26 13:35:00,"Queensdale Road, Shepherd's Bush"
737,51.479932,-0.19411599999999998,26,2013-11-27 12:17:00,"Fulham Broadway, Walham Green"
738,51.475142,-0.187278,37,2013-11-27 14:43:00,"Imperial Road, Sands End"
739,51.481765,-0.185273,28,2013-11-28 09:30:00,"Hortensia Road, West Brompton"
740,51.510928,-0.21459399999999998,26,2013-11-28 10:44:00,"Sirdar Road, Avondale"
741,51.512981,-0.219486,23,2013-11-28 12:02:00,"Freston Road, Avondale"
742,51.515108,-0.208565,22,2013-11-28 14:39:00,"Blenheim Crescent, Ladbroke Grove"
743,51.460792,-0.212607,29,2013-11-29 11:15:00,"Oxford Road, Putney"
744,51.467454,-0.172293,30,2013-11-29 12:56:00,"Ingrave Street, Clapham Junction"
745,51.478169,-0.18243499999999999,29,2013-11-29 15:47:00,"Upcerne Road, West Chelsea"
746,51.479573,-0.179038,24,2013-12-02 12:02:00,"Lots Road, West Chelsea"
747,51.487964,-0.161765,24,2013-12-02 15:14:00,"Ormonde Gate, Chelsea"
748,51.537277,-0.079201,25,2013-12-04 12:25:00,"Hertford Road, De Beauvoir Town"
749,51.539328,-0.074284,37,2013-12-04 15:54:00,"Haggerston Road, Haggerston "
750,51.471095,-0.15785000000000002,27,2013-12-05 10:46:00,"Culvert Road, Battersea"
751,51.516128,-0.12090899999999999,24,2013-12-05 13:40:00,"Newton Street, Covent Garden"
752,51.458164,-0.206002,29,2013-12-06 11:31:00,"Manfred Road, East Putney"
753,51.492636,-0.234094,28,2013-12-06 16:32:00,"Hammersmith Town Hall, Hammersmith"
754,51.5129,-0.21476199999999998,24,2014-01-06 10:19:00,"Grenfell Road, Avondale"
755,51.485121,-0.174971,24,2014-01-06 11:43:00,"The Vale, Chelsea"
756,51.475153,-0.159169,21,2014-01-20 13:04:00,"Prince of Wales Drive, Battersea Park"
757,51.487958,-0.187404,24,2014-01-07 11:31:00,"Harcourt Terrace, West Brompton"
758,51.51787,-0.201005,23,2014-01-08 10:47:00,"Westbourne Park Road, Portobello"
759,51.524561,-0.16566799999999998,18,2014-01-13 15:38:00,"Broadley Terrace, Marylebone"
760,51.525269,-0.163795,18,2014-01-21 13:26:00,"Rossmore Road, Marylebone"
761,51.483217,-0.21186000000000002,26,2014-01-15 10:30:00,"Humbolt Road, Fulham"
762,51.500703,-0.129698,21,2014-02-10 13:30:00,"Storey's Gate, Westminster"
763,51.520597,-0.032566,47,2014-02-10 14:37:00,"Mile End Park Leisure Centre, Mile End"
764,51.462392,-0.168292,33,2014-02-17 10:38:00,"St. John's Road, Clapham Junction"
765,51.467601,-0.20682699999999998,39,2014-02-21 12:49:00,"Ranelagh Gardens, Fulham"
766,51.457529,-0.192165,25,2014-02-20 11:14:00,"Ram Street, Wandsworth"
767,51.457059,-0.20080599999999998,30,2014-02-26 09:18:00,"Santos Road, Wandsworth"
768,51.461343,-0.159322,37,2014-02-27 09:41:00,"Clapham Common North Side, Clapham Common"
769,51.473611,-0.191803,21,2014-03-04 13:26:00,"Sandilands Road, Walham Green"
770,51.491026,-0.209121,30,2014-03-06 09:48:00,"Gwendwr Road, West Kensington"
771,51.509224,-0.21601599999999999,21,2014-03-05 11:20:00,"Rifle Place, Avondale"
772,51.472509,-0.122831,35,2014-04-02 12:35:00,"Binfield Road, Stockwell"
773,51.511891,-0.107349,24,2014-03-31 10:42:00,"Tallis Street, Temple"
774,51.470131,-0.20464000000000002,20,2014-03-31 11:38:00,"Hurlingham Park, Parsons Green"
775,51.496664,-0.22386799999999998,33,2014-03-31 12:52:00,"Little Brook Green, Brook Green"
776,51.460333,-0.16702899999999998,20,2014-03-31 13:42:00,"Abyssinia Close, Clapham Junction"
777,51.461923,-0.165297,21,2014-07-25 10:09:00,"Limburg Road, Clapham Junction"
779,51.514449,-0.077178,28,2015-06-26 10:15:00,"Houndsditch, Aldgate"
780,51.474665,-0.183165,25,2015-08-13 08:40:00,"Imperial Wharf Station, Sands End"
781,51.495898,-0.173009,30,2015-11-02 17:29:00,"Victoria & Albert Museum, South Kensington"
782,51.483911,-0.19760899999999998,24,2015-11-02 17:37:00,"Halford Road, West Kensington"
783,51.540311,-0.021630000000000003,27,2015-11-26 09:21:00,"Monier Road, Hackney Wick"
784,51.546326,-0.009935,34,2016-01-14 16:34:00,"East Village, Queen Elizabeth Olympic Park"
785,51.54094,-0.01051,64,2016-01-04 11:54:00,"Aquatic Centre, Queen Elizabeth Olympic Park"
786,51.549369,-0.015717,44,2016-01-04 14:36:00,"Lee Valley VeloPark, Queen Elizabeth Olympic Park"
787,51.546805,-0.014691,35,2016-01-04 09:45:00,"Timber Lodge, Queen Elizabeth Olympic Park"
788,51.544836,-0.019524,33,2016-01-04 11:28:00,"Copper Box Arena, Queen Elizabeth Olympic Park"
789,51.538718,-0.011889,40,2016-01-11 10:10:00,"Podium, Queen Elizabeth Olympic Park"
790,51.541793,-0.00481,28,2016-01-13 12:17:00,"Stratford Station, Stratford"
792,51.505461,-0.10454000000000001,42,2016-02-08 10:13:00,"Blackfriars Road, Southwark"
793,51.528279,-0.119558,28,2016-03-31 11:46:00,"Cromer Street, Bloomsbury"
794,51.474567,-0.12458000000000001,19,2016-02-25 12:44:00,"Lansdowne Way Bus Garage, Stockwell"
795,51.527068,-0.131861,30,2016-02-29 11:19:00,"Euston Square Gardens, Euston"
796,51.524,-0.126409,29,2016-02-29 11:47:00,"Coram Street, Bloomsbury"
797,51.5293,-0.128279,30,2016-03-01 13:39:00,"Ossulston Street, Somers Town"
798,51.530199,-0.12229899999999999,27,2016-06-01 13:33:00,"Birkenhead Street, King's Cross"
799,51.497698,-0.137598,24,2016-06-02 14:08:00,"Kings Gate House, Westminster"
800,51.481121,-0.149035,30,2016-03-04 15:59:00,"Sopwith Way, Battersea Park"
801,51.505224,-0.098031,29,2016-03-24 13:04:00,"Lavington Street, Bankside"
802,51.47659,-0.118256,32,2016-06-02 11:05:00,"Albert Square, Stockwell"
803,51.505409,-0.098341,23,2016-06-01 13:31:00,"Southwark Street, Bankside"
804,51.534667,-0.125078,27,2016-03-31 07:56:00,"Good's Way, King's Cross"
805,51.520069,-0.206338,27,2016-07-04 10:00:00,"Bevington Road, North Kensington"
806,51.53724,-0.124807,27,2016-09-01 09:51:00,"Handyside Street, King's Cross"
807,51.5212,-0.208888,24,2016-06-23 21:00:00,"Bevington Road West, North Kensington"
808,51.473486,-0.122555,33,2016-04-27 10:39:00,"Stockwell Roundabout, Stockwell"
809,51.516277,-0.11827199999999999,28,2016-07-04 14:00:00,"Lincoln's Inn Fields, Holborn"
810,51.506725,-0.09880699999999999,30,2016-06-03 08:40:00,"Tate Modern, Bankside"
811,51.505703,-0.027771999999999998,36,2016-07-26 13:16:00,"Westferry Circus, Canary Wharf"
812,51.548731,-0.022605999999999998,28,2016-07-20 09:00:00,"Here East North, Queen Elizabeth Olympic Park"
813,51.487807,-0.122759,37,2016-07-04 10:12:00,"New Spring Gardens Walk, Vauxhall"
814,51.471433,-0.12367000000000002,30,2016-06-02 12:21:00,"Clapham Road, Lingham Street, Stockwell"
815,51.500089,-0.116628,35,2016-05-04 10:28:00,"Lambeth Palace Road, Waterloo"
816,51.546532,-0.020597,28,2017-03-09 13:16:00,"Here East South, Queen Elizabeth Olympic Park"
817,51.481335,-0.138212,26,2016-06-03 10:19:00,"Riverlight South, Nine Elms"
818,51.503127,-0.078655,13,2016-05-19 12:21:00,"One Tower Bridge, Bermondsey"
819,51.50621,-0.114842,38,2016-10-13 12:02:00,"Belvedere Road 2, South Bank"
820,51.492807,-0.09193799999999999,24,2016-12-15 13:19:00,"Victory Place, Walworth"
821,51.483507,-0.14771399999999998,27,2017-02-17 12:52:00,"Battersea Power Station, Battersea Park"
826,51.496863,-0.142943,28,2017-07-20 12:48:00,"Allington Street, Victoria"
828,51.473874,-0.11258000000000001,32,2018-02-05 00:00:00,"Normandy Road, Stockwell"
829,51.469217,-0.112686,25,2018-02-01 00:00:00,"Wynne Road, Stockwell"
830,51.469202,-0.11902199999999999,27,2018-02-07 00:00:00,"Sidney Road, Stockwell"
831,51.466232,-0.11317899999999999,25,2018-02-07 00:00:00,"St John's Crescent, Brixton"
832,51.464019,-0.115781,30,2018-02-07 00:00:00,"Ferndale Road, Brixton. "
833,51.460232,-0.11537499999999999,42,2018-02-06 00:00:00,"Saltoun Road, Brixton"
835,51.516785,-0.104947,25,2018-10-11 10:45:00,"Farringdon Street, Holborn"
836,51.541596,-0.125441,24,2018-10-11 10:45:00,"York Way, Kings Cross"
838,51.518093,-0.091401,25,2018-10-11 10:45:00,"Fore Street Avenue, Guildhall"
20,51.527326,-0.136052,28,2018-12-13 00:00:00,"Drummond Street , Euston"
839,51.508033,-0.106823,30,2018-12-12 10:39:00,"Sea Containers, South Bank"
